City_ID,City,Lat,Lng,Max Temp,Humidity,Cloudiness,Wind Speed,Country,Date
0,rikitea,-23.1203,-134.9692,23.18,73,18,6.33,PF,1670086083
1,lorengau,-2.0226,147.2712,27.39,78,100,3.27,PG,1670086084
2,kalmunai,7.4167,81.8167,25.7,84,96,2.06,LK,1670086084
3,punta arenas,-53.15,-70.9167,10.06,50,20,12.35,CL,1670086084
4,vaini,-21.2,-175.2,25.09,88,75,3.09,TO,1670086085
5,gwadar,25.1216,62.3254,24.49,36,0,3.64,PK,1670086085
6,hobart,-42.8794,147.3294,13.92,94,100,0.0,AU,1670085903
7,saint-philippe,-21.3585,55.7679,25.77,74,48,1.68,RE,1670086085
8,touros,-5.1989,-35.4608,29.13,63,8,7.7,BR,1670085904
9,busselton,-33.65,115.3333,16.92,74,49,6.95,AU,1670086086
10,atakpame,7.5333,1.1333,30.37,45,63,2.6,TG,1670086086
11,hermanus,-34.4187,19.2345,17.67,59,31,5.52,ZA,1670086087
12,mollendo,-17.0231,-72.0147,22.24,70,31,4.82,PE,1670086087
13,alvorada,-12.48,-49.1247,30.13,56,99,3.26,BR,1670086088
14,chuy,-33.6971,-53.4616,20.59,80,100,2.88,UY,1670086088
15,portland,45.5234,-122.6762,3.68,63,40,6.71,US,1670085798
16,zuwarah,32.9312,12.082,20.62,40,3,1.02,LY,1670086088
17,hilo,19.7297,-155.09,23.49,93,100,0.45,US,1670086089
18,avarua,-21.2078,-159.775,26.03,94,75,4.12,CK,1670086089
19,vila velha,-20.3297,-40.2925,21.97,98,100,2.06,BR,1670085804
20,husavik,66.0449,-17.3389,1.92,83,100,2.77,IS,1670085863
21,amga,60.8953,131.9608,-28.52,100,100,0.17,RU,1670086090
22,albany,42.6001,-73.9662,9.85,91,100,0.45,US,1670085967
23,puro,12.4841,123.3827,26.1,87,33,3.9,PH,1670085892
24,codrington,-38.2667,141.9667,15.1,79,0,3.33,AU,1670086091
25,grindavik,63.8424,-22.4338,2.26,100,0,2.06,IS,1670086091
26,bluff,-46.6,168.3333,10.45,69,100,10.18,NZ,1670086091
27,nikolskoye,59.7035,30.7861,-4.06,91,100,3.15,RU,1670086092
28,namatanai,-3.6667,152.4333,25.78,82,100,2.86,PG,1670086092
29,sistranda,63.7256,8.834,-1.02,60,74,2.01,NO,1670086092
30,port alfred,-33.5906,26.891,17.88,82,74,0.89,ZA,1670086093
31,markova,48.6758,24.4138,-0.96,98,97,1.31,UA,1670086093
32,aden,12.7794,45.0367,26.19,71,7,4.86,YE,1670086093
33,east london,-33.0153,27.9116,19.52,77,0,5.66,ZA,1670086094
34,sisimiut,66.9395,-53.6735,-3.57,69,100,12.04,GL,1670085909
35,seoul,37.5683,126.9778,-0.34,62,0,5.14,KR,1670085713
36,luderitz,-26.6481,15.1594,19.73,55,3,11.42,NA,1670086094
37,qaanaaq,77.484,-69.3632,-12.62,67,97,5.6,GL,1670086095
38,souillac,-20.5167,57.5167,25.21,69,20,1.54,MU,1670086095
39,shubarshi,48.5872,57.1869,-12.5,73,20,6.36,KZ,1670086095
40,butaritari,3.0707,172.7902,27.39,76,8,8.06,KI,1670086096
41,atuona,-9.8,-139.0333,25.72,69,84,9.46,PF,1670086096
42,bredasdorp,-34.5322,20.0403,16.83,53,76,4.94,ZA,1670086096
43,castro,-24.7911,-50.0119,24.14,76,100,1.99,BR,1670086097
44,cape town,-33.9258,18.4232,19.59,55,20,12.35,ZA,1670085925
45,jamestown,42.097,-79.2353,8.8,67,100,11.83,US,1670086097
46,kutahya,39.4242,29.9833,5.81,93,77,2.06,TR,1670086098
47,kapaa,22.0752,-159.319,24.18,88,40,5.66,US,1670085894
48,umm lajj,25.0213,37.2685,25.54,67,55,4.51,SA,1670086053
49,clyde river,70.4692,-68.5914,-15.87,66,52,7.2,CA,1670086098
50,port blair,11.6667,92.75,28.02,83,40,3.09,IN,1670086099
51,karratha,-20.7377,116.8463,27.99,58,0,6.04,AU,1670086099
52,sabzevar,36.2126,57.6819,10.6,54,40,0.0,IR,1670086099
53,roald,62.5833,6.1333,4.31,69,20,5.66,NO,1670086100
54,sorong,-0.8833,131.25,26.36,83,100,2.67,ID,1670086100
55,timra,62.487,17.3257,-7.18,86,100,5.66,SE,1670086100
56,los llanos de aridane,28.6585,-17.9182,19.51,56,75,3.13,ES,1670086101
57,payson,40.0444,-111.7321,2.24,62,100,1.54,US,1670085981
58,ilulissat,69.2167,-51.1,2.01,48,40,10.8,GL,1670086102
59,mataura,-46.1927,168.8643,10.27,82,100,2.27,NZ,1670086102
60,phan thiet,10.9333,108.1,24.65,84,100,3.09,VN,1670086102
61,lunavada,23.1333,73.6167,20.47,38,92,1.66,IN,1670086103
62,spoleto,42.7448,12.7374,8.79,87,100,1.67,IT,1670086103
63,hasaki,35.7333,140.8333,3.22,69,100,5.27,JP,1670086104
64,villa carlos paz,-31.4241,-64.4978,34.48,18,0,2.68,AR,1670086104
65,lebu,-37.6167,-73.65,17.58,73,30,5.09,CL,1670086072
66,dikson,73.5069,80.5464,-6.85,94,100,5.57,RU,1670086105
67,ushuaia,-54.8,-68.3,10.81,37,75,8.75,AR,1670086105
68,faanui,-16.4833,-151.75,27.42,73,96,8.56,PF,1670086105
69,kjollefjord,70.9457,27.3465,-1.97,80,11,7.72,NO,1670086106
70,lanja,16.85,73.55,22.61,68,9,1.15,IN,1670086106
71,manokwari,-0.8667,134.0833,24.38,92,100,2.36,ID,1670086106
72,narsaq,60.9167,-46.05,-0.88,88,93,1.65,GL,1670086107
73,birin,26.8865,88.0718,9.76,75,28,2.12,NP,1670086107
74,obidos,-1.9175,-55.5181,32.34,50,82,2.36,BR,1670086107
75,lisakovsk,52.5369,62.4936,-20.22,89,5,3.68,KZ,1670086108
76,komsomolskiy,40.4272,71.7189,1.4,86,100,1.03,UZ,1670086108
77,mayumba,-3.432,10.6554,25.26,80,100,1.71,GA,1670086108
78,suffolk,40.8668,-72.7996,13.81,92,100,9.77,US,1670086109
79,ambon,-3.6954,128.1814,26.24,14,92,1.52,ID,1670086109
80,georgetown,5.4112,100.3354,26.8,94,20,0.0,MY,1670086111
81,darnah,32.767,22.6367,18.02,64,39,3.85,LY,1670086111
82,te anau,-45.4167,167.7167,7.59,91,100,2.38,NZ,1670086112
83,leningradskiy,69.3833,178.4167,-15.73,77,86,3.51,RU,1670086112
84,fort wellington,6.4,-57.6,24.73,91,100,3.03,GY,1670086112
85,shangrao,28.4532,117.9686,8.34,96,100,0.78,CN,1670086113
86,hualmay,-11.0964,-77.6139,22.19,72,15,3.95,PE,1670086113
87,inongo,-1.95,18.2667,23.35,92,86,2.04,CD,1670086113
88,usvyaty,55.7456,30.7533,-3.55,89,100,4.28,RU,1670086114
89,upernavik,72.7868,-56.1549,0.17,69,100,15.24,GL,1670086114
90,srednekolymsk,67.45,153.6833,-38.97,100,35,0.48,RU,1670086114
91,mar del plata,-38.0023,-57.5575,28.24,76,0,6.26,AR,1670086115
92,mitsamiouli,-11.3847,43.2844,29.16,70,40,4.12,KM,1670086115
93,shimoda,34.6667,138.95,13.51,59,100,9.23,JP,1670086115
94,puerto ayora,-0.7393,-90.3518,25.98,85,72,4.47,EC,1670086116
95,barsovo,61.1667,73.1667,-15.93,95,100,5.36,RU,1670086116
96,san juan pueblo,15.5833,-87.2333,28.42,70,44,2.72,HN,1670085943
97,hervey bay,-25.2986,152.8535,19.99,77,10,7.64,AU,1670086116
98,tahara,34.6667,137.2667,8.97,2,82,6.1,JP,1670086117
99,bengkulu,-3.8004,102.2655,23.66,90,99,1.81,ID,1670086117
100,new norfolk,-42.7826,147.0587,13.72,82,34,1.11,AU,1670086118
101,shaoguan,24.8,113.5833,12.25,86,99,1.59,CN,1670086118
102,yellowknife,62.456,-114.3525,-23.71,84,100,3.6,CA,1670085930
103,benidorm,38.5382,-0.131,14.35,72,55,2.98,ES,1670085825
104,neuquen,-38.9516,-68.0591,30.94,16,0,6.17,AR,1670086118
105,isangel,-19.55,169.2667,26.8,84,100,3.34,VU,1670086119
106,berlevag,70.8578,29.0864,-2.03,74,32,9.26,NO,1670086119
107,barrow,71.2906,-156.7887,-5.99,63,100,7.72,US,1670085919
108,arraial do cabo,-22.9661,-42.0278,25.98,88,75,9.26,BR,1670086120
109,andenes,69.3143,16.1194,-0.01,86,75,5.14,NO,1670086120
110,grand gaube,-20.0064,57.6608,25.22,69,20,1.79,MU,1670086121
111,tasiilaq,65.6145,-37.6368,0.09,94,100,12.5,GL,1670086121
112,fare,-16.7,-151.0167,26.98,74,97,8.58,PF,1670086121
113,ileza,61.0533,43.9002,-10.81,91,100,2.11,RU,1670086122
114,mulatupo,8.9492,-77.7652,28.39,69,39,2.55,PA,1670086122
115,longyearbyen,78.2186,15.6401,-0.09,93,75,9.26,SJ,1670086122
116,bathsheba,13.2167,-59.5167,30.34,66,20,7.2,BB,1670086123
117,saint-augustin,51.226,-58.6502,0.58,81,81,7.05,CA,1670086123
118,alghero,40.5589,8.3181,15.05,72,0,2.06,IT,1670086123
119,atar,20.5169,-13.0499,28.57,10,0,4.67,MR,1670086124
120,fortuna,40.5982,-124.1573,7.19,72,0,9.77,US,1670085851
121,tuatapere,-46.1333,167.6833,8.85,83,100,3.5,NZ,1670086124
122,guane,22.2025,-84.0875,29.6,54,16,6.26,CU,1670086125
123,saskylakh,71.9167,114.0833,-15.3,91,100,10.37,RU,1670086125
124,bonavista,48.6499,-53.1147,0.17,60,6,1.47,CA,1670086125
125,aklavik,68.2191,-135.0107,2.0,75,75,9.26,CA,1670086126
126,visnes,59.3556,5.2242,3.45,69,0,2.06,NO,1670086126
127,constitucion,-35.3333,-72.4167,20.92,63,66,7.34,CL,1670086106
128,kaitangata,-46.2817,169.8464,11.02,69,100,4.17,NZ,1670086127
129,magadan,59.5667,150.8,-19.71,91,100,3.23,RU,1670086127
130,brae,60.3964,-1.353,7.09,75,100,8.35,GB,1670086127
131,myatlevo,54.8969,35.6762,-6.16,92,100,3.45,RU,1670086128
132,lagoa,39.05,-27.9833,14.42,74,100,16.53,PT,1670086128
133,samarai,-10.6167,150.6667,25.83,83,100,3.27,PG,1670086128
134,anadyr,64.75,177.4833,-4.72,39,0,8.0,RU,1670086129
135,mogadishu,2.0371,45.3438,26.87,78,14,5.83,SO,1670086129
136,kijang,35.2442,129.2139,6.85,67,92,2.23,KR,1670085986
137,sitka,57.0531,-135.33,-2.06,74,20,1.54,US,1670086129
138,carnarvon,-24.8667,113.6333,21.08,80,0,8.44,AU,1670086130
139,nalut,30.3333,10.85,19.48,14,52,4.07,LY,1670086130
140,thompson,55.7435,-97.8558,-29.91,76,0,3.09,CA,1670086130
141,klaksvik,62.2266,-6.589,6.51,96,100,3.08,FO,1670086131
142,hithadhoo,-0.6,73.0833,28.27,71,100,6.32,MV,1670086131
143,prince rupert,54.3161,-130.3201,-2.17,69,0,7.72,CA,1670085910
144,yulara,-25.2406,130.9889,25.84,15,0,4.88,AU,1670086131
145,macau,22.2006,113.5461,19.89,82,40,5.66,MO,1670086132
146,vao,-22.6667,167.4833,24.88,90,100,3.84,NC,1670086132
147,weligama,5.9667,80.4167,24.7,88,91,1.32,LK,1670086133
148,nador,35.174,-2.9287,18.04,67,0,1.54,MA,1670086133
149,port hedland,-20.3167,118.5667,26.03,78,0,5.14,AU,1670086133
150,ornskoldsvik,63.2909,18.7153,-2.47,100,100,2.06,SE,1670086134
151,elizabeth city,36.2946,-76.2511,20.01,75,40,5.14,US,1670086047
152,ambikapur,23.1167,83.2,14.61,57,0,1.0,IN,1670086134
153,beringovskiy,63.05,179.3167,-3.91,95,100,12.46,RU,1670086134
154,cabo san lucas,22.8909,-109.9124,28.06,48,0,2.06,MX,1670085854
155,iraquara,-12.2486,-41.6194,25.84,65,100,4.32,BR,1670086135
156,san carlos de bariloche,-41.1456,-71.3082,16.86,34,20,14.4,AR,1670085933
157,cherskiy,68.75,161.3,-22.93,86,10,3.88,RU,1670086135
158,sao jose da coroa grande,-8.8978,-35.1478,27.74,70,37,6.14,BR,1670086136
159,zomba,-15.386,35.3188,23.87,50,56,2.04,MW,1670086136
160,khatanga,71.9667,102.5,-19.59,95,100,8.77,RU,1670086136
161,strezhevoy,60.7333,77.5889,-13.2,95,100,4.6,RU,1670086136
162,adrar,20.5022,-10.0711,26.27,16,1,1.34,MR,1670086137
163,dongfeng,42.6403,125.5118,-14.93,68,0,4.06,CN,1670086137
164,sur,22.5667,59.5289,24.16,64,0,1.86,OM,1670085883
165,alta floresta,-9.8756,-56.0861,25.8,76,100,1.65,BR,1670086138
166,asau,46.4333,26.4,-0.4,94,91,0.96,RO,1670086138
167,diego de almagro,-26.3667,-70.05,27.91,14,0,6.98,CL,1670086138
168,gigmoto,13.7796,124.39,26.42,88,38,3.75,PH,1670086139
169,tuktoyaktuk,69.4541,-133.0374,-1.0,100,100,19.03,CA,1670086139
170,ahuimanu,21.4447,-157.8378,23.44,90,100,3.6,US,1670086140
171,bethel,41.3712,-73.414,13.05,87,100,4.63,US,1670086140
172,pingliang,35.5392,106.6861,-2.67,42,100,0.94,CN,1670086140
173,nagda,23.45,75.4167,18.71,48,87,2.9,IN,1670086141
174,rio gallegos,-51.6226,-69.2181,14.03,23,75,12.86,AR,1670085853
175,port elizabeth,-33.918,25.5701,19.16,79,75,4.63,ZA,1670086141
176,arlit,18.7369,7.3853,26.94,12,72,1.83,NE,1670086142
177,kruisfontein,-34.0033,24.7314,17.71,71,100,4.26,ZA,1670086142
178,rabaul,-4.1967,152.1721,26.27,76,100,1.93,PG,1670086142
179,ponta do sol,32.6667,-17.1,18.35,69,66,4.38,PT,1670086143
180,iralaya,15.0,-83.2333,26.8,81,3,6.09,HN,1670086143
181,abha,18.2164,42.5053,15.9,77,20,3.09,SA,1670086143
182,troitsko-pechorsk,62.7084,56.1964,-19.05,100,75,1.36,RU,1670086144
183,brigantine,39.4101,-74.3646,13.44,94,100,6.69,US,1670086144
184,seredka,58.1584,28.1858,-7.14,94,93,3.43,RU,1670086144
185,nemuro,43.3236,145.575,5.17,81,68,8.88,JP,1670086145
186,huittinen,61.1833,22.7,-8.46,99,57,0.9,FI,1670086145
187,praia,14.9215,-23.5087,26.3,44,20,5.14,CV,1670086145
188,mutare,-18.9707,32.6709,21.45,55,1,1.33,ZW,1670086146
189,port macquarie,-31.4333,152.9167,14.38,85,53,0.74,AU,1670086146
190,lubao,14.9167,120.55,25.84,82,99,2.33,PH,1670086146
191,harper,4.375,-7.7169,26.62,79,91,3.6,LR,1670086147
192,san quintin,30.4833,-115.95,18.22,56,100,0.65,MX,1670086147
193,ullapool,57.8987,-5.1604,7.97,95,100,1.43,GB,1670085885
194,merauke,-8.4667,140.3333,26.45,73,17,0.47,ID,1670085958
195,esna,25.2934,32.554,22.01,23,99,3.42,EG,1670086148
196,bambous virieux,-20.3428,57.7575,25.14,69,20,1.54,MU,1670086148
197,natal,-5.795,-35.2094,30.36,58,40,8.23,BR,1670085780
198,oranjemund,-28.55,16.4333,16.78,68,0,9.57,NA,1670085973
199,soltsy,58.1239,30.3238,-3.76,91,100,3.49,RU,1670086149
200,rudnogorsk,57.2639,103.7519,-17.87,95,100,3.11,RU,1670086149
201,paraguacu paulista,-22.4128,-50.5758,31.96,43,96,2.88,BR,1670086149
202,erenhot,43.6475,111.9767,-15.17,69,2,3.6,CN,1670086150
203,maniitsoq,65.4167,-52.9,-1.62,67,100,11.53,GL,1670086150
204,ribeira grande,38.5167,-28.7,14.22,67,75,6.69,PT,1670086150
205,victoria,22.2855,114.1577,21.81,80,76,3.58,HK,1670085910
206,rameshki,57.3439,36.0453,-7.95,93,100,3.64,RU,1670086151
207,san vicente,-26.6167,-54.1333,31.78,36,52,2.11,AR,1670086151
208,mahibadhoo,3.7833,72.9667,27.11,79,68,3.24,MV,1670086151
209,san jose,37.3394,-121.895,10.83,88,100,0.45,US,1670086119
210,glendive,47.1053,-104.7125,-10.46,78,0,3.09,US,1670086152
211,wenatchee,47.4235,-120.3103,-6.53,89,0,3.09,US,1670086043
212,polyarnyy,69.1989,33.4478,-4.43,94,99,3.74,RU,1670086152
213,xining,36.6167,101.7667,-6.21,43,97,1.24,CN,1670086018
214,colombo,6.9319,79.8478,25.29,86,99,1.69,LK,1670085896
215,nouadhibou,20.931,-17.0347,21.99,68,0,5.66,MR,1670086153
216,quatre cocos,-20.2078,57.7625,25.06,68,6,4.03,MU,1670086153
217,torbay,47.6666,-52.7314,2.54,63,75,3.09,CA,1670086154
218,sampit,-2.5333,112.95,23.57,97,100,0.9,ID,1670086154
219,marovoay,-16.1,46.6333,27.0,74,53,3.77,MG,1670086154
220,yarada,17.65,83.2667,26.18,94,40,1.03,IN,1670086155
221,paamiut,61.994,-49.6678,-1.16,68,100,3.14,GL,1670085892
222,ust-kut,56.7938,105.7672,-17.52,95,100,2.66,RU,1670086156
223,olafsvik,64.8945,-23.7142,4.22,79,12,2.34,IS,1670086156
224,uruzgan,32.8333,66.0,6.48,50,5,1.01,AF,1670086156
225,sao felix do xingu,-6.6447,-51.995,27.29,84,64,1.19,BR,1670086157
226,prainha,-1.8,-53.48,30.73,56,52,1.12,BR,1670086157
227,nogliki,51.8333,143.1667,-15.37,96,100,5.17,RU,1670086157
228,honggang,46.4667,124.8667,-19.76,84,10,3.39,CN,1670086158
229,tommot,58.9564,126.2925,-20.16,96,100,3.58,RU,1670086158
230,port lincoln,-34.7333,135.8667,21.47,48,0,4.49,AU,1670086158
231,maua,-23.6678,-46.4614,27.89,71,98,1.39,BR,1670085858
232,comodoro rivadavia,-45.8667,-67.5,23.92,22,34,14.4,AR,1670086159
233,kameno,42.5667,27.3,7.16,81,100,3.6,BG,1670086159
234,marsaxlokk,35.8419,14.5431,19.49,82,0,6.17,MT,1670086159
235,hovd,48.0056,91.6419,-18.37,75,0,1.98,MN,1670086160
236,amberley,39.2048,-84.428,8.36,58,0,7.2,US,1670086160
237,tenosique,17.4833,-91.4333,24.02,88,80,1.22,MX,1670086160
238,shenjiamen,29.9576,122.298,14.75,91,100,8.62,CN,1670086161
239,steinbach,50.1667,8.5667,3.11,87,75,4.63,DE,1670086161
240,camopi,3.1655,-52.3158,28.65,75,69,1.17,GF,1670086162
241,erzin,36.9559,36.2,15.37,69,47,1.1,TR,1670086162
242,pochutla,15.7432,-96.4661,31.57,42,0,2.57,MX,1670086162
243,mount gambier,-37.8333,140.7667,13.34,69,0,2.47,AU,1670086163
244,nuuk,64.1835,-51.7216,-0.66,74,75,10.29,GL,1670086163
245,alice springs,-23.7,133.8833,16.75,36,0,2.06,AU,1670086163
246,madera,37.1666,-119.8343,12.91,88,100,0.89,US,1670086164
247,aksu,41.1231,80.2644,-5.08,26,14,1.68,CN,1670086164
248,alexandria,31.2156,29.9553,19.3,63,81,5.1,EG,1670085928
249,bubaque,11.2833,-15.8333,25.87,62,10,4.14,GW,1670085891
250,meadville,41.6414,-80.1515,9.76,83,100,12.86,US,1670086165
251,nantucket,41.2835,-70.0995,15.08,83,75,9.26,US,1670086165
252,garissa,-0.4536,39.6401,30.21,51,83,3.91,KE,1670086165
253,ordubad,38.9059,46.0234,4.33,89,86,4.04,AZ,1670086166
254,axim,4.8699,-2.2405,26.79,79,98,4.39,GH,1670086166
255,ipixuna,-1.7625,-48.8043,28.49,72,79,0.86,BR,1670086167
256,sakakah,29.9697,40.2064,17.76,65,30,4.23,SA,1670086167
257,chardara,41.2547,67.9692,-1.39,46,100,4.16,KZ,1670086167
258,idlib,35.9306,36.6339,14.23,66,60,0.22,SY,1670086168
259,kodiak,57.79,-152.4072,-6.27,79,0,4.12,US,1670086168
260,belyy yar,53.6039,91.3903,-26.06,82,20,0.0,RU,1670086168
261,nizwa,22.9333,57.5333,21.86,37,9,0.47,OM,1670086169
262,aksha,50.2814,113.2867,-16.96,71,47,6.44,RU,1670086170
263,guerrero negro,27.9769,-114.0611,20.02,60,100,2.26,MX,1670085978
264,iqaluit,63.7506,-68.5145,-22.25,97,30,1.87,CA,1670086170
265,pozhva,59.0912,56.0847,-12.37,91,99,1.84,RU,1670086170
266,stokmarknes,68.5646,14.9108,0.99,75,100,6.69,NO,1670086171
267,matay,28.419,30.7792,20.19,45,100,4.75,EG,1670086171
268,guiong,6.4186,122.0258,25.78,89,100,1.55,PH,1670086171
269,davila,18.4726,120.5763,26.05,82,88,5.78,PH,1670086172
270,neufchateau,48.35,5.7,2.59,90,92,4.96,FR,1670086172
271,ugoofaaru,5.6667,73.0,27.06,78,98,4.21,MV,1670086172
272,mataram,-8.5833,116.1167,25.45,85,100,1.73,ID,1670086173
273,porto novo,6.4965,2.6036,27.82,73,68,3.89,BJ,1670086173
274,geraldton,-28.7667,114.6,20.23,77,40,4.12,AU,1670086114
275,aitape,-3.1374,142.3475,25.61,88,100,3.21,PG,1670086174
276,san patricio,28.017,-97.5169,23.93,83,100,2.24,US,1670086174
277,sinazongwe,-17.2614,27.4618,29.13,42,0,2.9,ZM,1670086174
278,auki,-8.7676,160.7034,24.5,88,100,2.29,SB,1670086175
279,anchorage,61.2181,-149.9003,-5.25,90,75,1.54,US,1670085944
280,parrita,9.5201,-84.3225,30.7,68,57,2.57,CR,1670086175
281,kavieng,-2.5744,150.7967,27.76,78,100,3.6,PG,1670086176
282,poya,-21.35,165.15,24.87,94,99,1.25,NC,1670086096
283,cairns,-16.9167,145.7667,23.97,85,100,4.12,AU,1670086176
284,xiongyue,40.1774,122.1228,-4.65,40,5,7.34,CN,1670086176
285,mikuni,36.2171,136.1519,10.95,64,98,4.08,JP,1670086177
286,airai,-8.9266,125.4092,15.44,85,54,0.56,TL,1670086066
287,colares,38.7992,-9.4469,15.18,82,20,5.36,PT,1670086177
288,nokaneng,-19.6667,22.2667,34.43,15,38,2.12,BW,1670086177
289,malartic,48.1335,-78.1328,3.06,99,100,4.36,CA,1670086178
290,borba,-4.3878,-59.5939,30.81,59,99,1.36,BR,1670086178
291,cabinda,-5.55,12.2,26.15,82,100,1.72,AO,1670086178
292,honiara,-9.4333,159.95,24.76,88,100,1.48,SB,1670086179
293,nanortalik,60.1432,-45.2371,0.06,79,100,4.91,GL,1670086179
294,langres,47.8333,5.3333,1.77,92,97,3.08,FR,1670086179
295,ozinki,51.1786,49.6769,-11.83,65,0,4.28,RU,1670086180
296,chake chake,-5.2459,39.7666,25.0,83,14,3.13,TZ,1670086180
297,iba,15.3667,120.0333,25.06,74,100,2.14,PH,1670086180
298,watertown,42.3709,-71.1828,15.23,80,100,10.29,US,1670086181
299,chapais,49.7834,-74.8492,0.88,99,100,4.83,CA,1670086182
300,yuci,37.6803,112.7319,-7.14,49,0,3.0,CN,1670086182
301,kirakira,-10.4544,161.9205,26.23,83,99,2.88,SB,1670086182
302,kaniama,-7.5667,24.1833,21.65,87,99,0.49,CD,1670086183
303,saint george,37.1041,-113.5841,6.33,61,100,0.0,US,1670085941
304,storforshei,66.4043,14.5233,-7.41,85,0,0.51,NO,1670086183
305,dingle,10.9995,122.6711,24.27,92,65,3.11,PH,1670086183
306,santiago de chuco,-8.15,-78.1833,17.63,33,6,2.97,PE,1670086184
307,timmins,48.4669,-81.3331,-10.1,79,75,8.23,CA,1670085929
308,uvat,59.1433,68.8953,-17.72,96,69,2.5,RU,1670086184
309,teberda,43.4456,41.7448,4.02,98,100,0.79,RU,1670086185
310,deputatskiy,69.3,139.9,-25.42,87,99,6.01,RU,1670086185
311,manzhouli,49.6,117.4333,-22.56,90,17,4.75,CN,1670086185
312,zaysan,47.4667,84.8667,-17.26,87,86,1.57,KZ,1670086186
313,san ramon de la nueva oran,-23.1322,-64.326,36.35,19,0,1.37,AR,1670086186
314,mandalgovi,45.7625,106.2708,-15.84,43,0,2.79,MN,1670086186
315,kabalo,-6.05,26.9167,23.99,82,92,0.92,CD,1670086187
316,afonso bezerra,-5.4983,-36.5056,36.77,23,8,8.17,BR,1670086187
317,heiligenhafen,54.3667,10.9833,2.08,90,99,8.23,DE,1670086187
318,iquitos,-3.7481,-73.2472,31.02,74,75,1.54,PE,1670085919
319,awbari,26.5921,12.7805,22.72,21,6,5.15,LY,1670086188
320,timbiqui,2.7717,-77.6654,25.26,87,82,3.29,CO,1670086188
321,inirida,3.8653,-67.9239,32.36,50,97,0.61,CO,1670086189
322,yamethin,20.4333,96.15,22.01,76,1,1.35,MM,1670086189
323,mahebourg,-20.4081,57.7,25.16,69,20,1.54,MU,1670086189
324,stuttgart,48.7823,9.177,3.61,90,100,3.6,DE,1670086190
325,carlsbad,33.1581,-117.3506,20.34,77,0,0.0,US,1670086142
326,vardo,70.3705,31.1107,-2.01,80,100,5.66,NO,1670086190
327,vila,42.0304,-8.1588,4.49,88,1,1.71,PT,1670086191
328,pevek,69.7008,170.3133,-19.54,84,3,5.07,RU,1670086191
329,katikati,-37.55,175.9167,14.44,89,10,1.64,NZ,1670086191
330,kendari,-3.945,122.4989,23.42,96,100,1.27,ID,1670086192
331,igarka,67.4667,86.5833,-25.99,100,55,2.15,RU,1670086192
332,luanda,-8.8368,13.2343,29.0,70,40,6.17,AO,1670086192
333,sao filipe,14.8961,-24.4956,22.79,62,90,3.93,CV,1670086193
334,dwarka,22.2394,68.9678,24.1,56,51,4.86,IN,1670086193
335,polunochnoye,60.8697,60.4153,-19.48,96,23,1.8,RU,1670086193
336,vesyegonsk,58.664,37.2604,-8.82,90,100,3.69,RU,1670086194
337,tessalit,20.1986,1.0114,28.75,14,4,2.71,ML,1670086194
338,uyuni,-20.4597,-66.825,13.71,9,0,6.46,BO,1670086195
339,coffs harbour,-30.3,153.1333,16.74,88,40,3.09,AU,1670086142
340,padang,-0.9492,100.3543,24.53,85,100,1.07,ID,1670086195
341,taoudenni,22.6783,-3.9836,27.01,14,0,1.26,ML,1670086195
342,flinders,-34.5833,150.8552,12.81,89,0,2.58,AU,1670086196
343,ratanpur,22.3,82.1667,18.28,56,0,2.07,IN,1670086196
344,saint-pierre,-21.3393,55.4781,26.98,65,30,4.63,RE,1670086196
345,saravan,39.7196,45.6483,1.03,92,99,1.13,AM,1670086197
346,yatou,37.15,122.3833,-0.33,65,97,4.84,CN,1670086197
347,aljezur,37.3191,-8.8033,14.25,83,35,3.11,PT,1670086197
348,meulaboh,4.1363,96.1285,24.0,86,99,1.24,ID,1670086198
349,ust-tsilma,65.441,52.1498,-20.05,100,73,1.02,RU,1670086198
350,yeppoon,-23.1333,150.7333,18.88,73,34,6.36,AU,1670086198
351,fengrun,39.8333,118.1167,-5.84,24,0,1.51,CN,1670086199
352,cabo rojo,18.0866,-67.1457,29.88,63,1,0.89,PR,1670086199
353,mackay,-21.15,149.2,21.49,73,20,7.23,AU,1670086200
354,henties bay,-22.116,14.2845,16.01,78,9,6.06,NA,1670086200
355,plettenberg bay,-34.0527,23.3716,17.13,63,100,2.42,ZA,1670086200
356,ostrovnoy,68.0531,39.5131,-6.85,94,60,4.23,RU,1670086201
357,fort nelson,58.8053,-122.7002,-20.23,77,20,2.06,CA,1670085906
358,ushtobe,45.2514,77.9838,-10.59,89,98,2.12,KZ,1670086201
359,belozerskoye,55.8214,65.5842,-18.4,88,15,1.85,RU,1670086202
360,uyskoye,54.3775,60.0047,-21.91,95,13,1.61,RU,1670086202
361,gat,31.61,34.7642,19.67,28,73,2.32,IL,1670086020
362,okha,53.5739,142.9478,-18.15,84,100,5.31,RU,1670086203
363,namibe,-15.1961,12.1522,22.49,79,27,4.27,AO,1670086203
364,harpalpur,25.2884,79.3347,16.66,46,71,1.24,IN,1670086203
365,tiksi,71.6872,128.8694,-23.27,96,100,10.27,RU,1670086204
366,yarmouth,41.7057,-70.2286,15.08,86,100,6.69,US,1670086204
367,belmonte,-15.8631,-38.8828,25.34,85,100,4.41,BR,1670086205
368,lasa,46.6166,10.7002,4.49,98,98,1.99,IT,1670086205
369,kidal,18.4411,1.4078,29.07,13,1,1.48,ML,1670086205
370,makakilo city,21.3469,-158.0858,22.78,85,100,3.6,US,1670086206
371,talnakh,69.4865,88.3972,-22.11,99,79,2.39,RU,1670086061
372,gizo,-8.103,156.8419,26.59,79,100,2.22,SB,1670086206
373,qaqortoq,60.7167,-46.0333,-4.48,88,98,2.0,GL,1670086207
374,shakhtinsk,49.71,72.5872,-13.06,96,100,3.34,KZ,1670086207
375,emerald,-23.5333,148.1667,16.86,81,3,3.9,AU,1670086131
376,margate,51.3813,1.3862,6.5,79,87,2.24,GB,1670086208
377,port hawkesbury,45.6169,-61.3485,8.31,79,75,7.2,CA,1670086208
378,barabash,43.2,131.4833,-11.6,52,5,3.51,RU,1670086208
379,barillas,15.8036,-91.3158,17.15,91,96,1.88,GT,1670086209
380,bria,6.5423,21.9863,27.29,25,90,1.59,CF,1670086209
381,camacha,33.0833,-16.3333,15.68,63,40,5.14,PT,1670086210
382,dire dawa,9.5931,41.8661,20.55,49,27,2.09,ET,1670086210
383,chifeng,42.2683,118.9636,-12.15,35,0,4.66,CN,1670086210
384,tutin,42.9903,20.3314,3.99,95,100,1.63,RS,1670086211
385,matamoros,25.5333,-103.25,22.28,42,0,1.72,MX,1670085964
386,moba,33.2288,105.0179,-1.47,49,98,1.42,CN,1670086211
387,katsuura,35.1333,140.3,15.08,58,100,9.31,JP,1670086212
388,el dorado,38.7666,-120.5177,10.35,92,98,2.26,US,1670086212
389,goundam,16.4145,-3.6708,32.57,13,73,2.14,ML,1670086212
390,ahipara,-35.1667,173.1667,12.21,88,4,1.64,NZ,1670086213
391,necochea,-38.5473,-58.7368,29.75,25,1,2.86,AR,1670086213
392,chokurdakh,70.6333,147.9167,-21.26,92,100,8.17,RU,1670086214
393,matara,5.9485,80.5353,24.62,88,83,1.53,LK,1670086214
394,peterhead,57.5058,-1.7981,6.22,65,100,7.21,GB,1670086214
395,lerwick,60.1545,-1.1494,8.0,73,100,8.65,GB,1670086215
396,pangnirtung,66.1451,-65.7125,-14.0,72,75,4.12,CA,1670086215
397,kahului,20.8947,-156.47,24.36,77,20,4.02,US,1670086215
398,pokrovka,42.3414,78.0056,-4.59,62,39,3.25,KG,1670086216
399,turayf,31.6725,38.6637,13.14,82,40,3.09,SA,1670086216
400,coquimbo,-29.9533,-71.3436,18.81,72,3,3.35,CL,1670086216
401,haines junction,60.7522,-137.5108,-14.03,78,49,0.51,CA,1670086217
402,ndjole,-0.1783,10.7649,25.01,92,100,1.4,GA,1670086217
403,pisco,-13.7,-76.2167,21.68,83,0,5.14,PE,1670086217
404,batagay,67.6333,134.6333,-26.29,98,100,2.07,RU,1670086218
405,ponta delgada,37.7333,-25.6667,13.4,76,75,7.2,PT,1670086218
406,itarema,-2.9248,-39.9167,30.8,54,37,8.45,BR,1670086219
407,richards bay,-28.783,32.0377,21.13,76,100,4.37,ZA,1670086219
408,boyolangu,-8.1181,111.8935,24.42,90,100,1.3,ID,1670086219
409,khani,41.9563,42.9566,3.76,95,100,1.82,GE,1670086220
410,kisangani,0.5167,25.2,25.91,70,78,1.1,CD,1670086220
411,garowe,8.4054,48.4845,25.7,42,9,8.99,SO,1670086220
412,iranshahr,27.2025,60.6848,20.19,19,0,2.06,IR,1670086221
413,hailar,49.2,119.7,-25.56,96,13,3.69,CN,1670086221
414,rezina,47.7492,28.9622,0.91,71,97,4.04,MD,1670086222
415,egvekinot,66.3167,-179.1667,-10.75,64,100,3.8,RU,1670086222
416,eureka,40.8021,-124.1637,8.43,82,2,4.41,US,1670086222
417,bastrop,32.7562,-91.8724,23.72,73,40,2.57,US,1670086223
418,ilirska bistrica,45.5697,14.2408,8.26,100,100,2.06,SI,1670086223
419,tongliao,43.6125,122.2653,-14.79,45,0,4.8,CN,1670086223
420,saurimo,-9.6608,20.3916,20.13,90,82,1.98,AO,1670086224
421,digha,21.6833,87.55,20.96,45,0,1.94,IN,1670086224
422,ancud,-41.8697,-73.8203,14.68,77,43,5.77,CL,1670086224
423,juba,4.8517,31.5825,32.51,26,99,2.85,SS,1670086225
424,chengdu,30.6667,104.0667,10.53,100,40,1.0,CN,1670086225
425,wladyslawowo,54.7909,18.4009,0.86,91,100,5.55,PL,1670086226
426,poum,-20.2333,164.0167,26.0,86,67,2.69,NC,1670086226
427,severo-kurilsk,50.6789,156.125,-3.32,83,87,4.75,RU,1670086226
428,coihaique,-45.5752,-72.0662,13.34,71,75,5.14,CL,1670086007
429,akyab,20.15,92.9,24.49,78,0,3.76,MM,1670086227
430,acapulco,16.8634,-99.8901,29.4,54,63,1.23,MX,1670085984
431,tara,56.8944,74.371,-22.94,95,20,1.81,RU,1670086228
432,kropotkin,45.4375,40.5756,0.01,70,85,10.59,RU,1670086228
433,mufulira,-12.5498,28.2407,20.53,67,77,2.81,ZM,1670086228
434,provideniya,64.3833,-173.3,-4.79,92,100,7.99,RU,1670086229
435,hay river,60.8156,-115.7999,-14.02,78,100,5.66,CA,1670086229
436,miro khan,27.7599,68.0921,19.76,23,4,1.93,PK,1670086229
437,suoyarvi,62.0833,32.35,-6.21,83,100,3.71,RU,1670086230
438,valley city,46.9233,-98.0032,-16.71,78,100,6.17,US,1670086230
439,muros,42.7762,-9.0603,11.72,59,1,6.59,ES,1670086230
440,ha giang,22.8333,104.9833,18.55,93,100,0.79,VN,1670086231
441,salta,-24.7859,-65.4117,29.76,34,20,3.09,AR,1670086231
442,armidale,-30.5167,151.65,7.67,99,50,2.31,AU,1670086231
443,saldanha,-33.0117,17.9442,18.03,67,100,11.55,ZA,1670085984
444,corrente,-3.7367,-43.3394,36.21,29,51,2.09,BR,1670086232
445,oyama,36.3,139.8,9.21,58,47,1.46,JP,1670086232
446,caarapo,-22.6342,-54.8222,28.45,61,80,1.43,BR,1670086233
447,stykkisholmur,65.0757,-22.7297,2.16,84,14,2.55,IS,1670086233
448,cayenne,4.9333,-52.3333,28.02,78,75,3.09,GF,1670086233
449,cidreira,-30.1811,-50.2056,23.77,91,96,2.62,BR,1670086234
450,tomatlan,19.9333,-105.25,30.0,55,74,0.89,MX,1670085971
451,ust-kuyga,70.0167,135.6,-24.29,99,100,3.3,RU,1670086234
452,kavaratti,10.5669,72.642,28.11,71,99,3.64,IN,1670086234
453,barra,-11.0894,-43.1417,29.26,45,86,3.72,BR,1670086235
454,iwanai,42.9744,140.5089,0.75,70,98,8.91,JP,1670086235
455,zyryanka,65.75,150.85,-39.54,99,10,2.31,RU,1670086235
456,redcliffe,-27.2307,153.0973,18.27,82,0,4.12,AU,1670086236
457,mlowo,-9.0,32.9833,16.49,93,98,2.39,TZ,1670086236
458,a coruna,43.3713,-8.396,10.5,68,40,4.02,ES,1670086236
459,puerto escondido,15.85,-97.0667,30.13,46,0,1.71,MX,1670086237
460,gushikawa,26.3544,127.8686,21.77,78,100,7.2,JP,1670086237
461,maryborough,-25.5333,152.7,17.36,80,2,3.57,AU,1670086237
462,bilma,18.6853,12.9164,26.67,16,44,3.78,NE,1670086238
463,marquard,-28.6645,27.4305,21.83,20,1,3.09,ZA,1670086238
464,kumeny,58.1089,49.9161,-20.46,96,51,1.06,RU,1670086239
465,broome,42.2506,-75.833,10.39,82,100,5.66,US,1670086239
466,progreso,21.2833,-89.6667,29.5,62,0,7.04,MX,1670086239
467,sechura,-5.5569,-80.8222,26.59,54,60,5.16,PE,1670086240
468,marawi,7.9986,124.2928,19.98,91,99,0.75,PH,1670086240
469,tanout,14.9709,8.8879,28.48,15,1,5.18,NE,1670086240
470,chinsali,-10.5414,32.0816,20.68,76,97,1.86,ZM,1670086241
471,puerto ayacucho,5.6639,-67.6236,30.67,56,73,3.16,VE,1670086241
472,bara,10.3744,10.7288,33.88,22,92,2.75,NG,1670086241
473,carutapera,-1.195,-46.02,30.84,53,69,5.25,BR,1670086242
474,kayerkan,69.3497,87.7602,-22.49,83,94,2.12,RU,1670086242
475,rio verde de mato grosso,-18.9181,-54.8442,29.58,61,99,2.56,BR,1670086242
476,shahi,28.55,79.3167,17.35,41,0,1.58,IN,1670086243
477,waddan,29.1614,16.139,21.22,24,0,3.82,LY,1670086243
478,novyy urgal,51.0736,132.5642,-29.48,96,37,1.18,RU,1670086243
479,sobolevo,54.4299,31.8996,-5.13,92,100,4.99,RU,1670086041
480,wiang sa,8.6359,99.3666,26.03,95,100,1.22,TH,1670086244
481,norman wells,65.282,-126.8329,0.02,100,100,4.12,CA,1670086244
482,lompoc,34.6391,-120.4579,16.08,96,100,4.63,US,1670086131
483,kota bahru,6.1333,102.2386,23.97,100,20,0.0,MY,1670086245
484,gorontalo,0.5412,123.0595,23.67,95,90,1.35,ID,1670086245
485,cap malheureux,-19.9842,57.6142,24.15,69,27,1.79,MU,1670086245
486,sept-iles,50.2001,-66.3821,1.29,96,100,8.23,CA,1670086232
487,tarakan,3.3,117.6333,26.31,80,99,1.41,ID,1670086246
488,kazerun,29.6195,51.6541,16.67,58,18,0.74,IR,1670086246
489,ranfurly,-45.1333,170.1,8.18,87,100,2.32,NZ,1670086247
490,aykhal,66.0,111.5,-16.98,97,100,4.24,RU,1670086247
491,anito,12.4497,125.2886,25.6,91,55,3.41,PH,1670086247
492,vanavara,60.34,102.2797,-22.41,100,98,2.03,RU,1670086248
493,devils lake,48.1128,-98.8651,-16.7,73,100,6.17,US,1670085968
494,berberati,4.2612,15.7922,25.03,57,98,1.17,CF,1670086248
495,san borja,-14.8167,-66.85,34.52,33,20,1.73,BO,1670086248
496,staryy nadym,65.6118,72.6842,-6.38,95,93,5.76,RU,1670086249
497,stilfontein,-26.8449,26.7683,26.88,31,86,3.82,ZA,1670086249
498,catuday,16.2923,119.8062,26.24,78,100,2.69,PH,1670086249
499,namsos,64.4662,11.4957,0.03,86,20,4.12,NO,1670086250
500,fershampenuaz,53.5202,59.8117,-21.27,92,11,1.96,RU,1670086250
501,diffa,13.3154,12.6113,29.4,17,1,3.97,NE,1670086250
502,kudahuvadhoo,2.6708,72.8944,26.28,81,87,2.8,MV,1670085970
503,atikokan,48.7555,-91.6216,-14.53,74,100,4.53,CA,1670086251
504,rawson,-43.3002,-65.1023,25.68,24,61,5.32,AR,1670086251
505,miri,4.4148,114.0089,24.08,94,40,1.54,MY,1670086252
506,tucuma,-0.1833,-50.05,26.54,84,100,3.25,BR,1670086252
507,yining,29.0361,114.5636,5.94,92,100,1.3,CN,1670086252
508,shawinigan,46.5668,-72.7491,4.23,93,100,1.54,CA,1670086253
509,bandarbeyla,9.4942,50.8122,25.82,69,4,8.55,SO,1670086253
510,sola,-13.8833,167.55,27.64,74,100,4.88,VU,1670086254
511,saint-georges,12.0564,-61.7485,28.82,70,40,2.57,GD,1670086254
512,houma,29.5958,-90.7195,26.11,89,32,0.45,US,1670086254
513,tyup,42.7276,78.3648,-5.72,75,39,0.97,KG,1670086255
514,rondonopolis,-16.4708,-54.6356,34.75,42,100,0.47,BR,1670086255
515,tocopilla,-22.092,-70.1979,22.02,60,12,3.88,CL,1670086255
516,kohtla-jarve,59.3986,27.2731,-4.76,93,100,2.57,EE,1670086256
517,warmbad,-28.45,18.7333,27.89,7,0,6.29,NA,1670086256
518,methoni,36.8197,21.7049,15.68,76,98,5.43,GR,1670086257
519,tura,25.5198,90.2201,16.64,88,0,1.34,IN,1670086257
520,levin,-40.6333,175.275,8.73,88,26,1.26,NZ,1670086257
521,dalnegorsk,44.5604,135.5701,-16.21,77,37,4.03,RU,1670086258
522,bomi,7.2461,-11.5258,26.94,84,71,1.98,SL,1670086258
523,torbat-e jam,35.244,60.6225,4.72,35,100,0.7,IR,1670086258
524,lumphat,13.4878,106.9816,24.46,78,100,2.7,KH,1670086259
525,morant bay,17.8815,-76.4093,30.95,69,30,6.69,JM,1670086259
526,ahtopol,42.1,27.95,9.26,84,100,4.25,BG,1670086259
527,shingu,33.7333,135.9833,8.7,83,80,2.62,JP,1670086260
528,sao miguel do araguaia,-13.275,-50.1628,27.02,76,100,4.06,BR,1670086260
529,esperance,-33.8667,121.9,16.66,86,86,5.94,AU,1670086260
530,calamar,10.2511,-74.9146,29.13,65,97,1.29,CO,1670086261
531,jizan,17.3333,42.6667,27.52,69,3,0.91,SA,1670086261
532,conceicao do araguaia,-8.2578,-49.2647,28.23,71,100,1.39,BR,1670086261
533,horasan,40.0458,42.1728,2.63,82,70,0.75,TR,1670086262
534,gloversville,43.0528,-74.3438,9.64,97,100,4.82,US,1670086262
535,simplicio mendes,-7.8539,-41.9103,34.23,29,77,3.6,BR,1670086262
536,salamiyah,35.0113,37.0532,14.65,65,84,2.48,SY,1670086263
537,khomeyn,33.6423,50.0789,6.65,61,11,1.37,IR,1670086263
538,saint anthony,45.0205,-93.218,-11.76,70,0,6.17,US,1670086264
539,flin flon,54.7682,-101.865,-25.09,70,75,3.6,CA,1670086264
540,segou,13.4317,-6.2157,33.37,30,99,2.71,ML,1670086265
541,port hardy,50.6996,-127.4199,2.1,75,20,8.23,CA,1670086265
542,san cristobal,7.7669,-72.225,21.1,53,65,1.6,VE,1670086265
543,oktyabrskoye,43.0645,44.7417,-0.92,93,100,8.0,RU,1670086266
544,makokou,0.5738,12.8642,22.29,94,100,0.44,GA,1670086266
545,oriximina,-1.7656,-55.8661,32.31,52,66,2.04,BR,1670086266
546,carballo,43.213,-8.691,11.12,72,6,4.37,ES,1670086267
547,winneba,5.3511,-0.6231,27.22,78,80,5.09,GH,1670086267
548,huarmey,-10.0681,-78.1522,22.25,74,11,4.25,PE,1670086267
549,teya,60.3778,92.6267,-20.38,98,99,1.78,RU,1670086268
550,montepuez,-13.1256,38.9997,27.26,47,95,3.53,MZ,1670086268
551,tarko-sale,64.9225,77.785,-11.77,96,93,4.49,RU,1670086268
552,xuanhua,40.6103,115.0447,-9.96,30,0,2.14,CN,1670086269
553,tabou,4.423,-7.3528,26.22,82,95,3.56,CI,1670086269
554,katherine,-14.4667,132.2667,25.18,61,100,1.54,AU,1670086269
